City,Lat,Lng,Max Temp,Humidity,Cloudiness,Wind Speed,Country,Date
Camaná,-16.6228,-72.7111,60.76,82,58,7.07,PE,1628642395
Barrow,71.2906,-156.7887,37.42,78,90,10.36,US,1628642395
East London,-33.0153,27.9116,54.52,46,0,6.78,ZA,1628642395
Buchanan,5.8808,-10.0467,76.86,87,79,7.18,LR,1628642396
Camacha,33.0833,-16.3333,70.56,83,40,8.05,PT,1628642396
Cockburn Town,21.4612,-71.1419,82.85,77,0,19.73,TC,1628642396
Busselton,-33.65,115.3333,50.04,73,100,10.31,AU,1628642397
Butaritari,3.0707,172.7902,83.26,67,10,12.12,KI,1628642397
Saldanha,-33.0117,17.9442,42.85,72,0,10.33,ZA,1628642397
Maxixe,-23.8597,35.3472,63.79,71,35,8.46,MZ,1628642398
Kapaa,22.0752,-159.319,84.52,66,20,3.0,US,1628642398
Ibanda,-2.7974,32.4746,68.79,67,98,0.83,TZ,1628642398
Faya,18.3851,42.4509,66.72,57,10,2.59,SA,1628642399
Jamestown,42.097,-79.2353,77.07,87,90,5.01,US,1628642399
Pangnirtung,66.1451,-65.7125,40.01,96,99,1.14,CA,1628642399
Nikolskoye,59.7035,30.7861,58.01,91,91,0.25,RU,1628642400
Fairbanks,64.8378,-147.7164,62.56,83,75,6.91,US,1628642297
Yellowknife,62.456,-114.3525,57.72,58,90,6.91,CA,1628642400
Vaini,-21.2,-175.2,71.76,73,75,13.8,TO,1628642401
Narsaq,60.9167,-46.05,52.02,56,100,1.92,GL,1628642401
Bethel,41.3712,-73.414,77.09,89,75,1.01,US,1628642402
Arraial do Cabo,-22.9661,-42.0278,69.94,85,6,22.73,BR,1628642404
Vanavara,60.34,102.2797,68.02,51,48,2.73,RU,1628642405
Paphos,34.7667,32.4167,82.18,44,0,3.44,CY,1628642405
Gaza,31.5,34.4667,80.58,72,0,3.6,PS,1628642405
Ushuaia,-54.8,-68.3,37.06,70,40,29.93,AR,1628642405
Meulaboh,4.1363,96.1285,74.07,95,100,5.82,ID,1628642406
Umluj,25.0213,37.2685,85.86,60,7,7.09,SA,1628642406
Kruisfontein,-34.0033,24.7314,50.23,30,0,7.9,ZA,1628642406
Sinop Province,41.7711,34.8709,64.76,94,100,5.64,TR,1628642407
Hofn,64.2539,-15.2082,50.4,87,11,9.37,IS,1628642407
Carnarvon,-24.8667,113.6333,51.87,55,0,14.97,AU,1628642407
Castro,-24.7911,-50.0119,61.11,60,100,2.48,BR,1628642408
São José da Coroa Grande,-8.8978,-35.1478,74.35,90,56,9.95,BR,1628642408
Khovd,48.0056,91.6419,67.53,42,100,7.76,MN,1628642408
Rikitea,-23.1203,-134.9692,70.57,66,0,13.2,PF,1628642409
Punta Arenas,-53.15,-70.9167,37.51,81,75,9.22,CL,1628642405
Isangel,-19.55,169.2667,77.11,61,75,9.22,VU,1628642409
Mataura,-46.1927,168.8643,55.47,75,100,5.7,NZ,1628642409
Iqaluit,63.7506,-68.5145,46.13,71,75,13.8,CA,1628642410
Bluff,-46.6,168.3333,55.8,80,100,11.72,NZ,1628642410
Dikson,73.5069,80.5464,40.23,94,100,20.24,RU,1628642411
Hilo,19.7297,-155.09,83.93,79,75,9.22,US,1628642060
Byron Bay,-28.65,153.6167,69.06,61,24,6.85,AU,1628642311
São Filipe,14.8961,-24.4956,77.22,81,21,7.4,CV,1628642411
Verkhnyaya Inta,65.9811,60.3094,53.37,81,100,5.06,RU,1628642411
Te Anau,-45.4167,167.7167,46.2,95,100,5.01,NZ,1628642412
Cape Town,-33.9258,18.4232,49.12,93,0,1.14,ZA,1628642123
Khatanga,71.9667,102.5,50.38,80,100,15.79,RU,1628642412
Hithadhoo,-0.6,73.0833,80.96,72,78,7.4,MV,1628642413
Shitanjing,39.2342,106.3439,62.73,67,100,4.27,CN,1628642413
Port Blair,11.6667,92.75,81.57,82,100,7.29,IN,1628642413
Bowen,-20.0167,148.2333,68.22,71,26,18.12,AU,1628642414
Qaanaaq,77.484,-69.3632,44.19,69,100,8.99,GL,1628642414
Tuy Hoa,13.0833,109.3,85.96,66,99,9.98,VN,1628642414
Chicama,-7.8447,-79.1469,61.34,82,19,7.92,PE,1628642415
Mbandaka,0.0487,18.2603,71.4,74,100,2.15,CD,1628642415
Sitka,57.0531,-135.33,58.89,77,90,8.05,US,1628642415
Hermanus,-34.4187,19.2345,48.9,71,0,1.9,ZA,1628642416
Bredasdorp,-34.5322,20.0403,40.32,87,0,2.3,ZA,1628642416
Lata,40.1629,-8.3327,64.92,97,34,2.04,PT,1628642417
Bubaque,11.2833,-15.8333,80.13,80,64,9.64,GW,1628642417
Lebu,-37.6167,-73.65,46.35,83,0,19.91,CL,1628642417
Kiama,-34.6833,150.8667,73.26,41,0,12.46,AU,1628642136
Sokoni,-6.4333,39.55,75.52,72,21,16.24,TZ,1628642418
Albany,42.6001,-73.9662,77.65,81,57,4.41,US,1628641972
Traverse City,44.7631,-85.6206,82.47,69,90,3.44,US,1628642397
Najrān,17.4924,44.1277,81.25,24,100,3.6,SA,1628642419
Lavrentiya,65.5833,-171.0,45.14,71,97,8.77,RU,1628642419
Tuktoyaktuk,69.4541,-133.0374,53.6,66,90,10.36,CA,1628642419
Vigrestad,58.5667,5.7,60.01,84,14,1.19,NO,1628642420
Puerto Ayora,-0.7393,-90.3518,70.56,90,98,5.99,EC,1628642420
Mar del Plata,-38.0023,-57.5575,33.82,86,0,4.61,AR,1628642297
Yangi Marg`ilon,40.4272,71.7189,72.32,43,0,6.91,UZ,1628642421
Russell,32.3502,-85.1999,80.31,66,70,2.48,US,1628642421
Zhaotong,27.3167,103.7167,66.83,84,100,3.0,CN,1628642421
Naze,28.3667,129.4833,81.52,82,99,13.89,JP,1628642422
Tarabuco,-19.1667,-64.9167,46.65,76,49,4.52,BO,1628642422
New Norfolk,-42.7826,147.0587,58.91,67,100,1.99,AU,1628642422
Esperance,-33.8667,121.9,44.44,78,52,17.85,AU,1628642423
Itoman,26.1247,127.6694,84.22,79,75,18.41,JP,1628642423
Atuona,-9.8,-139.0333,77.54,74,2,22.7,PF,1628642423
Mertoyudan,-7.52,110.2264,76.57,72,23,6.06,ID,1628642424
Brae,60.3964,-1.353,53.51,92,100,6.58,GB,1628642424
Cherskiy,68.75,161.3,56.91,53,29,2.98,RU,1628642425
Hong Kong,22.2855,114.1577,86.97,85,98,1.01,HK,1628642161
San Patricio,28.017,-97.5169,90.01,67,0,14.27,US,1628642425
Emerald,-23.5333,148.1667,68.14,64,90,14.97,AU,1628642425
Chokurdakh,70.6333,147.9167,64.56,41,84,7.11,RU,1628642426
Bengkulu,-3.8004,102.2655,77.23,86,11,3.83,ID,1628642426
Port Alfred,-33.5906,26.891,55.4,59,0,8.14,ZA,1628642426
Bambous Virieux,-20.3428,57.7575,68.25,100,75,2.3,MU,1628642427
El Retorno,2.3302,-72.6276,72.59,97,99,1.07,CO,1628642427
Raebareli,26.2167,81.2333,77.13,86,100,10.58,IN,1628642427
Machala,-3.2667,-79.9667,69.8,88,100,5.64,EC,1628642428
Saskylakh,71.9167,114.0833,61.93,62,100,6.4,RU,1628642428
Ancud,-41.8697,-73.8203,45.93,91,8,4.34,CL,1628642428
Zhenhaicun,24.2582,118.0905,77.68,83,100,8.79,CN,1628642429
Kudahuvadhoo,2.6708,72.8944,82.31,75,100,12.93,MV,1628642429
Bloomingdale,27.8936,-82.2404,84.54,84,1,1.99,US,1628642429
Gravesend,51.4414,0.3737,61.95,87,99,5.73,GB,1628642235
Sechura,-5.5569,-80.8222,65.89,75,19,13.13,PE,1628642430
Bukachacha,52.9833,116.9167,57.52,90,100,4.94,RU,1628642430
Geraldton,-28.7667,114.6,50.41,87,90,9.22,AU,1628642431
Carutapera,-1.195,-46.02,76.71,87,4,4.45,BR,1628642431
Touros,-5.1989,-35.4608,74.3,87,8,12.62,BR,1628642431
Sorong,-0.8833,131.25,81.99,75,11,7.25,ID,1628642432
Severo-Kuril'sk,50.6789,156.125,57.47,70,0,6.98,RU,1628642432
Itarema,-2.9248,-39.9167,79.5,82,0,16.2,BR,1628642432
Norman Wells,65.282,-126.8329,55.44,76,90,6.91,CA,1628642433
Nemuro,43.3236,145.575,55.83,84,100,25.34,JP,1628642433
Ribeira Grande,38.5167,-28.7,72.28,87,99,8.86,PT,1628642433
Muaná,-1.5283,-49.2167,78.03,81,15,6.71,BR,1628642434
Chapais,49.7834,-74.8492,65.98,98,100,5.57,CA,1628642434
Thompson,55.7435,-97.8558,60.96,94,75,6.91,CA,1628642435
Kuril'sk,45.2333,147.8833,53.4,91,100,21.05,RU,1628642435
Bilibino,68.0546,166.4372,61.18,40,41,4.54,RU,1628642435
Yulara,-25.2406,130.9889,62.44,51,75,23.02,AU,1628642436
Saint Paul Harbor,57.79,-152.4072,57.54,67,100,3.11,US,1628642436
Dafeng,23.4517,108.5881,82.49,86,100,6.6,CN,1628642437
Uribia,11.7139,-72.266,84.29,62,13,18.05,CO,1628642437
Warrensburg,38.7628,-93.7361,90.41,65,1,8.05,US,1628642437
Nadvoitsy,63.8667,34.3167,55.62,91,6,3.6,RU,1628642438
São Félix do Xingu,-6.6447,-51.995,76.01,41,0,1.32,BR,1628642438
Flinders,-34.5833,150.8552,73.06,44,0,11.54,AU,1628642438
Katsina,12.9894,7.6006,74.57,85,100,12.3,NG,1628642439
Dunedin,-45.8742,170.5036,54.81,53,63,11.99,NZ,1628642439
Tumaco,1.7986,-78.8156,76.95,82,100,10.89,CO,1628642440
Ohafia,5.6167,7.8333,71.08,98,100,3.4,NG,1628642440
George Town,5.4112,100.3354,78.75,91,20,3.44,MY,1628642336
Samashki,43.2906,45.3014,76.32,54,77,4.74,RU,1628642440
Poum,-20.2333,164.0167,71.19,58,53,22.32,NC,1628642441
Paamiut,61.994,-49.6678,44.87,80,100,1.3,GL,1628642441
Huéscar,37.811,-2.5412,85.95,48,100,3.67,ES,1628642442
St. George's,12.0564,-61.7485,82.08,83,20,11.5,GD,1628642442
Cabo San Lucas,22.8909,-109.9124,85.05,83,90,1.01,MX,1628642274
Airai,-8.9266,125.4092,70.86,58,42,4.29,TL,1628642443
Pevek,69.7008,170.3133,37.29,82,52,12.15,RU,1628642443
Sørland,67.667,12.6934,55.29,95,100,10.38,NO,1628642443
Muli,2.9167,73.5667,82.26,75,100,13.47,MV,1628642444
Husavik,66.0449,-17.3389,60.71,59,49,6.85,IS,1628642444
Lüderitz,-26.6481,15.1594,59.58,62,100,13.04,NA,1628642444
Ariquemes,-9.9133,-63.0408,79.56,39,9,1.01,BR,1628642445
Mehamn,71.0357,27.8492,57.38,94,100,4.23,NO,1628642445
Sinegor'ye,62.0788,150.477,75.78,34,98,3.47,RU,1628642445
Maniitsoq,65.4167,-52.9,44.02,88,100,8.66,GL,1628642446
Eyl,7.9803,49.8164,75.51,78,55,18.52,SO,1628642446
Saint-Joseph,-21.3667,55.6167,64.78,85,20,5.91,RE,1628642446
Gunjur,13.2019,-16.7339,78.87,94,75,0.0,GM,1628642447
Zimovniki,47.1483,42.4633,73.38,64,19,4.47,RU,1628642447
Luanda,-8.8368,13.2343,71.98,87,100,7.05,AO,1628642447
Avarua,-21.2078,-159.775,78.85,78,0,4.61,CK,1628642448
Vila,42.0304,-8.1588,59.7,84,0,4.21,PT,1628642448
High Level,58.5169,-117.136,69.91,40,75,12.66,CA,1628642448
Yeppoon,-23.1333,150.7333,69.58,72,58,14.09,AU,1628642448
Khandyga,62.6667,135.6,78.6,35,56,3.89,RU,1628642449
Conakry,9.538,-13.6773,78.87,94,75,6.91,GN,1628642269
Pochutla,15.7432,-96.4661,76.05,89,100,3.29,MX,1628642449
São João da Barra,-21.6403,-41.0511,70.75,86,32,17.22,BR,1628642450
Cabinda,-5.55,12.2,73.63,89,64,6.22,AO,1628642450
Upernavik,72.7868,-56.1549,44.74,78,100,6.38,GL,1628642450
Marabba,12.35,32.1833,76.91,79,100,3.6,SD,1628642451
Avera,33.194,-82.5271,82.71,74,22,8.34,US,1628642451
Port Elizabeth,-33.918,25.5701,46.69,87,0,3.44,ZA,1628642452
Longyearbyen,78.2186,15.6401,42.64,93,0,2.3,SJ,1628642452
Wanning,18.8003,110.3967,86.0,78,100,10.65,CN,1628642452
Talnakh,69.4865,88.3972,45.28,83,100,7.14,RU,1628642453
Bom Jesus,-9.0744,-44.3586,80.69,39,93,3.44,BR,1628642453
Margate,51.3813,1.3862,62.69,80,76,1.99,GB,1628642453
Haines Junction,60.7522,-137.5108,64.35,36,30,8.05,CA,1628642454
Coyhaique,-45.5752,-72.0662,35.55,87,0,0.0,CL,1628642454
Manokwari,-0.8667,134.0833,83.59,68,41,11.12,ID,1628642454
Lázaro Cárdenas,17.9583,-102.2,80.02,84,76,3.67,MX,1628642455
Dargaville,-35.9333,173.8833,57.63,77,34,10.07,NZ,1628642455
Rawson,-43.3002,-65.1023,45.45,73,3,17.22,AR,1628642455
Venice,27.0998,-82.4543,81.16,94,40,0.0,US,1628642208
Kopidlno,50.3308,15.2703,63.99,88,6,3.04,CZ,1628642456
Haapiti,-17.5667,-149.8667,82.13,78,96,15.17,PF,1628642456
Tasiilaq,65.6145,-37.6368,51.96,92,100,5.66,GL,1628642456
Vardø,70.3705,31.1107,54.32,96,100,7.36,NO,1628642457
Ilulissat,69.2167,-51.1,46.42,81,75,3.44,GL,1628642457
‘Āhuimanu,21.4447,-157.8378,87.51,63,90,10.36,US,1628642457
Bahía Honda,22.9036,-83.1592,79.68,82,72,10.36,CU,1628642458
Tuatapere,-46.1333,167.6833,55.81,89,92,6.8,NZ,1628642458
Guerrero Negro,27.9769,-114.0611,80.83,55,9,13.71,MX,1628642458
Salalah,17.0151,54.0924,77.09,94,90,5.75,OM,1628642459
Portalegre,39.2938,-7.4312,71.92,49,0,3.2,PT,1628642459
Nanortalik,60.1432,-45.2371,47.26,71,62,6.69,GL,1628642459
Tongren,27.7172,109.1853,78.39,93,100,3.78,CN,1628642460
Palmerston,-12.486,130.9833,83.89,71,75,10.36,AU,1628642460
Roald,62.5833,6.1333,60.85,100,90,2.3,NO,1628642461
Hambantota,6.1241,81.1185,79.14,94,40,10.36,LK,1628642461
Ponta do Sol,32.6667,-17.1,74.03,79,0,3.53,PT,1628642462
Pucara,-15.9803,-71.4606,35.73,35,14,3.22,PE,1628642462
Lorengau,-2.0226,147.2712,85.17,67,78,6.08,PG,1628642462
Worthington,40.0931,-83.018,81.57,82,75,1.01,US,1628642437
Deputatsky,69.3,139.9,74.53,31,100,4.56,RU,1628642463
Santa Maria do Suaçuí,-18.1903,-42.4142,67.98,52,99,0.76,BR,1628642463
Saint-Philippe,-21.3585,55.7679,65.79,85,27,8.03,RE,1628642464
Vila Franca do Campo,37.7167,-25.4333,72.01,91,10,2.46,PT,1628642464
Den Helder,52.9599,4.7593,59.99,94,40,4.61,NL,1628642454
Lerwick,60.1545,-1.1494,53.6,90,100,6.58,GB,1628642465
Grand Gaube,-20.0064,57.6608,68.4,92,93,5.01,MU,1628642465
Galle,6.0367,80.217,78.64,87,100,12.12,LK,1628642465
Macusani,-14.0833,-70.4333,34.97,87,10,4.45,PE,1628642466
Aktau,43.65,51.2,75.78,34,7,5.79,KZ,1628642466
Marigot,18.0667,-63.0833,83.05,89,20,12.66,MF,1628642466
Provideniya,64.3833,-173.3,48.31,71,90,11.18,RU,1628642467
Bilma,18.6853,12.9164,92.28,29,6,3.83,NE,1628642467
Katherine,-14.4667,132.2667,80.92,50,13,9.22,AU,1628642467
Beringovskiy,63.05,179.3167,53.56,67,8,8.9,RU,1628642468
Madang,-5.2246,145.7966,85.32,65,79,4.38,PG,1628642468
Tabou,4.423,-7.3528,76.86,84,100,11.21,CI,1628642468
Nkoteng,4.5167,12.0333,67.84,98,86,6.22,CM,1628642469
Nouadhibou,20.931,-17.0347,71.58,73,0,19.57,MR,1628642469
Gayny,60.3071,54.3241,49.19,95,1,2.68,RU,1628642469
Werota,11.9167,37.7,59.18,86,38,2.73,ET,1628642470
Aranos,-24.1333,19.1167,55.6,33,100,12.93,NA,1628642470
Namanga,-2.5433,36.7905,60.67,82,92,2.55,KE,1628642470
Ankazoabo,-22.2833,44.5167,57.07,67,0,7.2,MG,1628642471
Jumla,29.2747,82.1838,64.94,90,80,0.56,NP,1628642471
Albury,-36.0833,146.9167,61.02,79,75,5.75,AU,1628642471
Tautira,-17.7333,-149.15,82.42,81,93,15.82,PF,1628642472
Gornyy,55.1153,83.9059,58.8,88,100,4.68,RU,1628642472
Saquarema,-22.92,-42.5103,77.02,81,6,10.33,BR,1628642472
Saquena,-4.6667,-73.5167,74.91,84,91,2.37,PE,1628642473
Vanderhoof,54.0166,-124.0198,78.82,45,100,14.67,CA,1628642473
Kizhinga,51.8462,109.9097,64.83,55,97,3.04,RU,1628642473
Salinas,36.6777,-121.6555,91.56,62,1,8.05,US,1628642405
Marawi,7.9986,124.2928,76.64,64,85,0.92,PH,1628642474
Clyde River,70.4692,-68.5914,44.83,81,40,10.36,CA,1628642474
Constitución,-35.3333,-72.4167,48.42,66,0,6.4,CL,1628642475
Karratha,-20.7377,116.8463,66.02,30,0,23.02,AU,1628642475
Mahdasht,35.7299,50.8111,84.42,31,0,6.91,IR,1628642475
Codrington,-38.2667,141.9667,51.84,78,100,18.57,AU,1628642476
Chui,-33.6971,-53.4616,43.27,80,6,7.96,UY,1628642476
Coron,11.9986,120.2043,81.79,78,23,6.64,PH,1628642476
Hobart,-42.8794,147.3294,59.25,65,75,4.0,AU,1628642477
Srednekolymsk,67.45,153.6833,64.47,38,6,9.26,RU,1628642477
Ust-Nera,64.5667,143.2,76.55,35,76,6.78,RU,1628642477
Verkhniy Lomov,53.4678,43.5511,71.74,50,100,6.91,RU,1628642478
Pisco,-13.7,-76.2167,62.02,88,0,18.41,PE,1628642478
Lodwar,3.1191,35.5973,81.28,52,72,3.69,KE,1628642479
Kutum,14.2,24.6667,70.75,79,46,1.88,SD,1628642479
Rāwah,34.4816,41.9093,88.45,25,0,5.57,IQ,1628642479
Van,38.4924,43.3831,63.75,55,20,3.44,TR,1628642480
Salinópolis,-0.6136,-47.3561,78.58,85,70,9.69,BR,1628642480
Fukuechō,32.6881,128.8419,77.36,100,75,9.22,JP,1628642480
Kibala,9.1104,18.3463,75.15,94,20,9.22,TD,1628642481
College,64.8569,-147.8028,62.55,83,75,6.91,US,1628642481
Sydney,-33.8679,151.2073,70.36,53,0,4.0,AU,1628641944
Lethem,3.3803,-59.7968,77.32,84,99,4.79,GY,1628642482
Eufaula,31.8913,-85.1455,80.64,83,1,0.0,US,1628642373
Torbay,47.6666,-52.7314,60.28,83,75,12.66,CA,1628642482
Hasaki,35.7333,140.8333,84.6,71,52,8.99,JP,1628642482
San Andrés,12.5847,-81.7006,81.91,79,100,14.52,CO,1628642483
Marsh Harbour,26.5412,-77.0636,83.66,71,2,14.27,BS,1628642483
Konza,-1.7426,37.1294,56.16,94,99,3.24,KE,1628642483
Nizhniy Tsasuchey,50.5167,115.1333,58.15,93,100,9.78,RU,1628642484
Ketchikan,55.3422,-131.6461,63.07,77,40,5.75,US,1628642485
Coquimbo,-29.9533,-71.3436,53.33,87,0,4.61,CL,1628642485
Hualmay,-11.0964,-77.6139,62.13,80,57,10.22,PE,1628642485
Ayacucho,-13.1583,-74.2239,55.0,58,58,5.46,PE,1628642485
Vangaindrano,-23.35,47.6,62.74,86,31,5.46,MG,1628642486
Grand Forks,47.9417,-97.4337,80.33,41,90,4.61,US,1628642486
Fortuna,40.5982,-124.1573,65.98,75,1,8.05,US,1628642200
La Ronge,55.1001,-105.2842,61.02,77,75,19.57,CA,1628642487
Klaksvík,62.2266,-6.589,49.12,87,95,4.59,FO,1628642487
Dubti,11.7361,41.0853,88.56,48,29,8.68,ET,1628642487
Storm Lake,42.6411,-95.2097,84.33,94,1,0.0,US,1628642488
Eldama Ravine,0.0516,35.7308,55.26,87,100,4.21,KE,1628642488
Show Low,34.2542,-110.0298,72.28,59,40,5.75,US,1628642489
Mahébourg,-20.4081,57.7,68.29,100,75,2.3,MU,1628642489
Shelburne,44.0787,-80.2041,74.68,94,1,9.89,CA,1628642489
Keminmaa,65.8596,24.8228,62.37,94,90,10.36,FI,1628642490
Agirish,61.9247,63.0231,50.36,87,7,4.45,RU,1628642490
Longyan,25.1072,117.0225,80.19,90,100,3.51,CN,1628642490
Bathsheba,13.2167,-59.5167,79.41,89,20,9.22,BB,1628642491
Boyolangu,-8.1181,111.8935,77.41,75,94,12.75,ID,1628642491
Rusape,-18.5278,32.1284,51.57,95,100,6.38,ZW,1628642491
Mayor Pablo Lagerenza,-19.9309,-60.7718,58.23,56,72,9.33,PY,1628642492
Oussouye,12.485,-16.5469,82.49,85,100,5.06,SN,1628642492
Lufilufi,-13.8745,-171.5986,89.38,72,5,17.81,WS,1628642492
Sheregesh,52.9209,87.9869,61.02,80,95,1.59,RU,1628642493
Zhezkazgan,47.8043,67.7144,67.87,51,31,5.93,KZ,1628642493
Sawākin,19.1059,37.3321,91.36,55,86,3.78,SD,1628642493
Dubbo,-32.25,148.6167,64.53,59,90,23.02,AU,1628642494
Waingapu,-9.6567,120.2641,82.63,64,9,13.15,ID,1628642494
Shakawe,-18.3667,21.85,57.0,24,0,6.22,BW,1628642494
Progreso,21.2833,-89.6667,87.91,85,99,15.84,MX,1628642495
Bereda,43.2686,-7.5406,63.91,100,91,3.2,ES,1628642495
Haimen,23.1935,116.6142,84.09,80,79,7.67,CN,1628642495
Honiara,-9.4333,159.95,86.29,67,28,10.89,SB,1628642401
Matamoros,25.5333,-103.25,95.11,30,40,0.0,MX,1628642496
Mwinilunga,-11.7358,24.4293,57.65,26,0,3.78,ZM,1628642496
Kisesa,-3.0833,34.15,68.41,54,86,4.0,TZ,1628642497
Afuá,-0.1567,-50.3867,75.81,92,59,5.1,BR,1628642497
Vermilion,40.1667,-87.7506,86.52,79,40,12.66,US,1628642497
Nantucket,41.2835,-70.0995,74.08,88,90,5.75,US,1628642498
Manthani,18.65,79.6667,80.01,78,100,3.6,IN,1628642498
Conway,35.0887,-92.4421,93.04,49,1,12.66,US,1628642435
Jiazi,22.8779,116.067,84.0,79,43,6.31,CN,1628642499
Helmsdale,58.1168,-3.6517,57.15,94,84,6.98,GB,1628642499
Pacific Grove,36.6177,-121.9166,91.26,74,1,1.99,US,1628642316
Okha,53.5739,142.9478,61.59,60,0,7.61,RU,1628642500
Sangmélima,2.9333,11.9833,67.89,96,94,3.91,CM,1628642500
Saltillo,25.4167,-101.0,78.46,42,62,7.38,MX,1628642470
Shingū,33.7333,135.9833,83.91,65,100,6.08,JP,1628642354
Puerto Varas,-41.3195,-72.9854,46.62,87,75,9.22,CL,1628642501
Laguna,38.421,-121.4238,104.92,22,1,3.0,US,1628642326
Okhotsk,59.3833,143.3,65.64,61,3,5.44,RU,1628642501
Kiryat Gat,31.61,34.7642,80.4,78,0,1.52,IL,1628642501
Bijie,27.3125,105.2942,68.43,88,100,1.05,CN,1628642502
Souris,49.6172,-100.2612,64.74,87,100,9.75,CA,1628642502
Warrington,53.3925,-2.5802,59.11,87,40,4.61,GB,1628642502
Trofors,65.5333,13.4063,54.75,94,100,3.65,NO,1628642503
Paita,-5.0892,-81.1144,65.19,82,27,14.72,PE,1628642503
Salym,60.0625,71.4789,52.59,78,100,10.42,RU,1628642503
Yar-Sale,66.8333,70.8333,49.66,77,0,9.69,RU,1628642504
San Quintín,30.4833,-115.95,72.82,74,61,11.16,MX,1628642504
Verkhnevilyuysk,63.4453,120.3167,64.54,72,100,4.0,RU,1628642505
Dickson,36.077,-87.3878,88.65,82,100,6.04,US,1628642505
Tilichiki,60.4667,166.1,66.24,47,1,8.99,RU,1628642505
Ipixuna,-1.7625,-48.8043,73.35,82,11,5.23,BR,1628642506
Andenes,69.3143,16.1194,57.18,94,90,2.3,NO,1628642506
Irbeyskoye,55.6428,95.4522,64.44,74,100,3.36,RU,1628642506
Nyurba,63.2842,118.3319,70.09,53,73,4.72,RU,1628642507
Isla Mujeres,21.2311,-86.731,80.65,77,19,11.01,MX,1628642507
Batagay,67.6333,134.6333,79.14,25,91,6.98,RU,1628642507
Plakhtiyivka,46.1006,29.7217,69.78,57,0,10.42,UA,1628642508
Faanui,-16.4833,-151.75,79.27,72,26,14.5,PF,1628642508
Ongandjera,-17.8833,15.0667,60.26,23,0,4.18,NA,1628642508
Hamilton,39.1834,-84.5333,85.41,87,40,1.99,US,1628642492
Lompoc,34.6391,-120.4579,82.56,68,1,13.8,US,1628642369
Palmer,42.1584,-72.3287,76.62,77,79,6.31,US,1628642509
Katsuura,35.1333,140.3,89.64,72,76,11.14,JP,1628642509
Santa Cruz de La Palma,28.6835,-17.7642,73.54,83,0,4.61,ES,1628642510
Maragogi,-9.0122,-35.2225,74.12,91,72,9.75,BR,1628642510
Cap Malheureux,-19.9842,57.6142,68.49,92,89,5.01,MU,1628642510
Petropavlovsk-Kamchatskiy,53.0452,158.6483,64.99,55,40,4.47,RU,1628642511
Huaicheng,23.9051,112.1931,82.83,85,99,1.9,CN,1628642511
Aklavik,68.2191,-135.0107,54.32,78,100,7.61,CA,1628642511
Tura,25.5198,90.2201,76.66,97,100,6.82,IN,1628642409
Ambulu,-8.345,113.6058,77.72,71,15,2.13,ID,1628642512
Taksimo,56.3444,114.8794,60.17,94,100,2.04,RU,1628642512
Kirakira,-10.4544,161.9205,81.64,80,81,16.69,SB,1628642512
Muzhi,65.3667,64.6667,55.36,73,20,4.0,RU,1628642513
Kontagora,10.3999,5.4695,71.92,96,100,3.13,NG,1628642513
Prince Rupert,54.3161,-130.3201,59.09,91,90,5.75,CA,1628642383
West Lafayette,40.4259,-86.9081,87.89,70,1,8.05,US,1628642514
Abbeville,50.1,1.8333,57.16,92,100,5.03,FR,1628642302
Tecpan,14.7623,-90.9947,65.16,95,79,5.21,GT,1628642514
Chibombo,-14.6569,28.0706,60.53,34,0,12.26,ZM,1628642514
Moose Factory,51.2585,-80.6094,71.6,88,20,4.61,CA,1628642515
Ballina,-28.8667,153.5667,66.78,72,40,4.61,AU,1628642515
Savé,8.0425,2.486,71.76,97,100,5.88,BJ,1628642515
San Vicente,-26.6167,-54.1333,52.34,97,100,3.98,AR,1628642516
Ejido,8.5514,-71.2375,69.37,89,100,4.83,VE,1628642516
Huarmey,-10.0681,-78.1522,62.96,83,35,11.41,PE,1628642516
Qasigiannguit,68.8193,-51.1922,46.65,93,100,3.71,GL,1628642517
Namwala,-15.7504,26.4384,58.03,37,0,5.5,ZM,1628642517
Tiksi,71.6872,128.8694,63.37,76,100,14.03,RU,1628642517
Shirokiy,49.758,129.523,64.6,66,99,7.31,RU,1628642518
Conde,-7.2597,-34.9075,72.86,94,75,8.05,BR,1628642518
Namatanai,-3.6667,152.4333,85.3,62,8,5.23,PG,1628642518
Colac,-38.3333,143.5833,62.01,54,100,19.69,AU,1628642519
Cuajinicuilapa,16.4667,-98.4167,76.91,91,99,5.26,MX,1628642519
Butembo,0.15,29.2833,57.87,94,100,1.28,CD,1628642519
Upington,-28.4478,21.2561,46.78,34,0,8.05,ZA,1628642520
Plátanos,37.6667,21.6167,82.56,58,0,3.53,GR,1628642520
Loksa,59.5764,25.7214,53.92,80,100,6.46,EE,1628642520
Sobolevo,54.4299,31.8996,59.18,94,0,5.57,RU,1628642521
Baykit,61.67,96.37,67.35,50,51,2.24,RU,1628642521
Povenets,62.8487,34.8262,56.84,92,2,1.66,RU,1628642521
Kibondo,-3.5864,30.7203,65.25,50,39,3.02,TZ,1628642522
Cidreira,-30.1811,-50.2056,55.0,87,100,11.81,BR,1628642522
Luebo,-5.35,21.4167,73.09,59,2,0.67,CD,1628642522
Grindavik,63.8424,-22.4338,53.55,100,40,6.91,IS,1628642523
Belaya Gora,68.5333,146.4167,75.63,35,41,5.3,RU,1628642523
Bahādurganj,26.2667,87.8167,80.19,93,100,13.98,IN,1628642523
Portland,45.5234,-122.6762,95.5,37,20,3.0,US,1628641939
Taquaritinga do Norte,-7.9031,-36.0442,62.64,95,39,5.53,BR,1628642524
Half Moon Bay,37.4636,-122.4286,93.58,72,20,1.01,US,1628642524
Nishihara,26.1842,127.7558,83.48,79,75,18.41,JP,1628642525
Kavieng,-2.5744,150.7967,85.98,61,5,8.86,PG,1628642525
Selianitika,38.2833,22.0333,83.8,66,0,6.24,GR,1628642525
Ust-Maya,60.4167,134.5333,74.66,35,100,4.25,RU,1628642526
Krasnosel'kup,65.7,82.4667,49.84,71,1,14.18,RU,1628642526
Manta,-0.95,-80.7333,71.38,83,40,12.66,EC,1628642407
Huambo,-12.7761,15.7392,55.76,30,0,3.29,AO,1628642526
Marsá Maţrūḩ,31.3525,27.2453,80.8,78,0,10.36,EG,1628642527
Novaya Maka,41.7717,48.3615,77.47,42,43,4.83,RU,1628642527
Gubkinskiy,64.434,76.5026,51.22,75,6,10.56,RU,1628642527
Southbridge,42.0751,-72.0334,75.63,91,27,5.7,US,1628642528
Dores do Indaiá,-19.4633,-45.6017,69.98,40,64,4.05,BR,1628642528
Kadoma,34.7333,135.5833,82.45,67,75,3.44,JP,1628642528
Manadhoo,5.7667,73.3833,82.47,76,100,19.3,MV,1628642529
Wick,58.4333,-3.0833,51.55,100,100,0.0,GB,1628642529
Hawalli,29.2833,47.9972,98.56,36,0,8.01,KW,1628642529
Udachny,66.4167,112.4,63.12,61,0,14.2,RU,1628642530
Maromitsa,59.8683,48.0123,52.12,92,97,5.17,RU,1628642530
Samaná,19.2056,-69.3369,77.99,89,80,9.06,DO,1628642530
Black River,18.0264,-77.8487,84.97,69,97,3.65,JM,1628642531
Shubarshi,48.5872,57.1869,74.21,37,10,5.08,KZ,1628642531
Kirksville,40.1948,-92.5833,82.58,74,1,5.75,US,1628642419
Talara,-4.5772,-81.2719,64.22,88,17,15.37,PE,1628642532
North Bend,43.4065,-124.2243,87.24,72,1,24.16,US,1628642388
Aykhal,66.0,111.5,60.58,66,0,14.65,RU,1628642532
Tamiahua,21.2667,-97.45,80.62,83,12,9.51,MX,1628642532
Port Hedland,-20.3167,118.5667,68.05,34,0,21.85,AU,1628642533
Kermanshah,34.3142,47.065,68.9,24,0,0.0,IR,1628642533
Monopoli,40.9559,17.2896,85.15,69,7,4.21,IT,1628642534
Xichang,27.8964,102.2634,70.11,87,100,1.88,CN,1628642350
Ereymentau,51.6199,73.1033,55.8,83,71,9.64,KZ,1628642534
Zunyi,27.6867,106.9072,72.84,94,100,2.84,CN,1628642534
Province of Trapani,37.8333,12.6667,98.78,23,0,6.91,IT,1628642535
Gwadar,25.1216,62.3254,80.08,79,84,4.83,PK,1628642535
Taltal,-25.4,-70.4833,57.99,80,15,4.81,CL,1628642535
Praia,14.9215,-23.5087,77.54,83,0,12.66,CV,1628642383
Dvorichna,49.8496,37.6857,68.31,55,91,6.71,UA,1628642536
Kumul,42.8,93.45,79.66,30,100,5.61,CN,1628642536
Dingle,10.9995,122.6711,82.45,73,81,2.68,PH,1628642537
Viedma,-40.8135,-62.9967,46.8,77,7,17.74,AR,1628642537
Killybegs,54.6333,-8.45,60.46,86,100,10.4,IE,1628642537
Ranong,9.9658,98.6348,76.93,83,97,9.64,TH,1628642538
Hattiesburg,31.3271,-89.2903,88.09,83,1,3.44,US,1628642538
Sinnamary,5.3833,-52.95,77.16,88,31,8.19,GF,1628642538
George Town,5.4112,100.3354,78.75,91,20,3.44,MY,1628642336
Kropotkin,45.4375,40.5756,69.55,90,99,2.82,RU,1628642539
Bandarbeyla,9.4942,50.8122,75.4,81,92,24.54,SO,1628642539
Sibu,2.3,111.8167,77.31,94,40,2.3,MY,1628642539
Jining,35.405,116.5814,81.93,76,100,3.98,CN,1628642540
Narasannapeta,18.4167,84.05,84.22,71,80,7.36,IN,1628642540
Severnyy,50.677,36.5532,64.44,94,75,6.71,RU,1628642540
Tual,-5.6667,132.75,80.58,82,100,17.98,ID,1628642541
Astolfo Dutra,-21.3153,-42.8622,66.06,55,11,0.78,BR,1628642541
Barcelos,41.5388,-8.6151,69.28,86,0,2.3,PT,1628642541
Orocué,4.7912,-71.3354,76.32,89,100,1.16,CO,1628642542
Montepuez,-13.1256,38.9997,62.85,73,0,8.86,MZ,1628642542
Auki,-8.7676,160.7034,82.29,74,59,5.53,SB,1628642542
Dandong,40.1292,124.3947,75.81,82,77,3.18,CN,1628642543
Grootfontein,-19.5667,18.1167,54.34,27,5,3.71,NA,1628642543
Luangwa,-15.6167,30.4167,63.63,52,0,5.61,ZM,1628642543
San Cristobal,7.7669,-72.225,77.18,91,100,3.09,VE,1628642544
Peniche,39.3558,-9.3811,67.28,88,50,16.55,PT,1628642544
Kwinana,-32.25,115.7667,53.92,87,100,10.51,AU,1628642544
Lensk,60.7253,114.9278,69.89,63,22,0.74,RU,1628642545
Kulhudhuffushi,6.6221,73.07,82.62,76,100,19.01,MV,1628642545
Jiangkou,25.4872,119.1986,85.89,83,100,8.37,CN,1628642545
Launceston,-41.45,147.1667,53.24,94,40,1.01,AU,1628642546
Marshall,34.3834,-86.3333,87.51,74,1,4.61,US,1628642546
Ajdabiya,30.7554,20.2263,80.87,60,0,7.76,LY,1628642546
Nālūt,30.3333,10.85,85.91,22,0,12.8,LY,1628642547
Ouadda,8.0777,22.4007,66.56,98,74,3.87,CF,1628642547
Andra,62.5147,65.8878,50.27,81,6,4.97,RU,1628642547
Pāppinisshēri,11.95,75.35,75.65,91,98,3.42,IN,1628642548
Måløy,61.9353,5.1136,60.06,95,25,1.14,NO,1628642548
Humaitá,-7.5061,-63.0208,79.95,38,3,3.13,BR,1628642548
Nizhnyaya Tavda,57.6731,66.1725,53.73,83,100,10.94,RU,1628642549
Pucallpa,-8.3791,-74.5539,79.68,59,52,2.62,PE,1628642549
Kieta,-6.2167,155.6333,83.3,73,7,6.62,PG,1628642549
Vila Velha,-20.3297,-40.2925,69.75,88,0,6.91,BR,1628642550
Lidköping,58.5052,13.1577,55.9,93,32,4.9,SE,1628642550
Qui Nhon,13.7667,109.2333,85.33,67,95,4.0,VN,1628642382
Kisangani,0.5167,25.2,71.42,96,100,1.48,CD,1628642551
Baiyin,36.5583,104.2081,67.08,39,96,12.03,CN,1628642551
Poretskoye,55.1974,46.3291,67.84,75,79,4.09,RU,1628642551
Yelan',50.949,43.7378,76.62,34,98,14.65,RU,1628642552
Denizli Province,37.8402,29.0698,72.45,47,0,4.54,TR,1628642552
Mahon,39.8885,4.2658,77.56,88,20,3.44,ES,1628642552
Tiarei,-17.5333,-149.3333,82.42,80,41,15.3,PF,1628642553
Kavaratti,10.5669,72.642,81.41,79,100,22.46,IN,1628642553
Joshīmath,30.5667,79.5667,71.1,78,19,2.46,IN,1628642553
Acaraú,-2.8856,-40.12,79.61,82,0,16.96,BR,1628642307
Hirara,24.8,125.2833,84.47,84,75,6.91,JP,1628642554
Presidencia Roque Sáenz Peña,-26.7852,-60.4388,49.55,66,5,5.99,AR,1628642554
Charters Towers,-20.1,146.2667,75.13,50,4,16.26,AU,1628642554
Lagoa,39.05,-27.9833,71.76,86,100,13.33,PT,1628642555
Sisimiut,66.9395,-53.6735,44.31,87,100,22.55,GL,1628642555
Carauari,-4.8828,-66.8958,79.99,60,45,2.06,BR,1628642555
Erdenet,49.0333,104.0833,61.59,69,4,0.94,MN,1628642556
Noumea,-22.2763,166.4572,71.58,59,87,17.38,NC,1628642556
Kilindoni,-7.9139,39.6668,75.47,71,1,15.61,TZ,1628642557
Kahului,20.8947,-156.47,85.96,77,40,23.02,US,1628642557
Los Llanos de Aridane,28.6585,-17.9182,69.55,96,0,4.61,ES,1628642557
Tarata,-17.6167,-66.0167,62.02,65,92,4.65,BO,1628642558
Qena,26.1615,32.7183,86.11,26,0,8.03,EG,1628642558
Alta Floresta,-9.8756,-56.0861,76.03,34,0,4.41,BR,1628642558
Myshkin,57.7897,38.4545,63.72,97,100,3.4,RU,1628642559
Vestmannaeyjar,63.4427,-20.2734,53.02,83,26,13.2,IS,1628642559
Anadyr,64.75,177.4833,63.1,59,0,4.47,RU,1628642559
Iwanai,42.9744,140.5089,66.85,61,100,8.68,JP,1628642356
Nahariya,33.0059,35.0941,76.98,88,0,1.5,IL,1628642560
Kuala Terengganu,5.3302,103.1408,76.95,100,20,2.3,MY,1628642560
Zyryanovsk,49.7386,84.2719,58.01,94,100,2.1,KZ,1628642560
Esim,4.8699,-2.2405,75.88,87,8,8.86,GH,1628642561
Kattivākkam,13.2167,80.3167,82.49,71,100,10.47,IN,1628642561
Christchurch,-43.5333,172.6333,59.32,57,0,4.0,NZ,1628642276
Puerto Colombia,10.9878,-74.9547,82.49,82,99,22.44,CO,1628642561
Agüimes,27.9054,-15.4461,72.23,60,75,16.11,ES,1628642562
Normandin,48.8333,-72.5321,80.91,95,100,4.03,CA,1628642562
Tsogni,-2.7942,10.0988,74.21,86,93,4.88,GA,1628642562
Caravelas,-17.7125,-39.2481,68.41,83,5,5.48,BR,1628642563
Yatou,37.15,122.3833,82.18,68,10,2.46,CN,1628642563
Sfântu Gheorghe,45.8667,25.7833,66.27,83,25,0.54,RO,1628642564
Havøysund,70.9963,24.6622,59.88,88,92,6.4,NO,1628642564
Örnsköldsvik,63.2909,18.7153,56.35,100,90,1.14,SE,1628642564
Manicoré,-5.8092,-61.3003,76.95,94,0,0.0,BR,1628642564
Leningradskiy,69.3833,178.4167,36.82,82,99,16.82,RU,1628642565
Panabá,21.2833,-88.2667,81.72,73,38,14.85,MX,1628642566
Sept-Îles,50.2001,-66.3821,63.12,93,90,2.3,CA,1628642394
Nsoko,-27.0333,31.95,52.77,92,21,2.04,SZ,1628642566
Nome,64.5011,-165.4064,53.67,76,90,5.75,US,1628642566
Kaitangata,-46.2817,169.8464,54.68,65,100,6.4,NZ,1628642567
Dwārka,22.2394,68.9678,80.56,78,100,17.6,IN,1628642567
Ambilobe,-13.2,49.05,67.21,90,47,3.58,MG,1628642567
Chishtian,29.8,72.8667,89.46,44,0,14.09,PK,1628642568
Gamba,-2.65,10.0,74.77,85,93,5.17,GA,1628642568
Linxia Chengguanzhen,35.6003,103.2064,65.12,52,100,1.23,CN,1628642349
Potosí,-19.5836,-65.7531,46.36,42,58,2.46,BO,1628642569
Bogotol,56.2078,89.5342,63.46,94,100,3.96,RU,1628642569
Nabire,-3.3667,135.4833,84.72,62,72,2.35,ID,1628642569
Cuiabá,-15.5961,-56.0967,84.13,39,0,6.91,BR,1628642406
Manzhouli,49.6,117.4333,55.63,96,100,11.99,CN,1628642352
San Bartolomé de Tirajana,27.9248,-15.5733,64.87,81,75,16.11,ES,1628642570
San Juan,-31.5375,-68.5364,52.34,37,0,4.32,AR,1628642570
Phan Thiet,10.9333,108.1,85.24,67,21,7.11,VN,1628642570
Fershampenuaz,53.5202,59.8117,49.33,96,0,7.78,RU,1628642571
New Ulm,44.3125,-94.4605,82.54,64,1,0.0,US,1628642571
Mount Isa,-20.7333,139.5,74.97,33,5,8.05,AU,1628642572
Beloha,-25.1667,45.05,60.94,84,5,7.14,MG,1628642572
Papara,-3.9839,-38.7273,79.2,90,24,4.14,BR,1628642573
Dobryanka,58.4619,56.4165,49.86,84,0,2.89,RU,1628642573
Dunhua,43.3725,128.2425,63.09,95,100,9.69,CN,1628642573
Bealanana,-14.55,48.7333,54.34,99,37,2.93,MG,1628642574
Rybnaya Sloboda,55.4613,50.1409,66.18,82,11,9.8,RU,1628642574
Rokupr,8.6717,-12.395,72.48,98,86,2.01,SL,1628642574
Eenhana,-17.4667,16.3333,60.55,25,0,3.91,NA,1628642575
Altay,47.8667,88.1167,67.01,52,60,0.89,CN,1628642575
Oranjestad,12.524,-70.027,84.15,70,20,17.27,AW,1628642365
Panguna,-6.3164,155.4848,79.54,67,17,2.93,PG,1628642575
Preobrazheniye,42.9019,133.9064,65.55,68,100,15.35,RU,1628642576
Kanniyākumāri,8.0833,77.5667,79.21,80,100,18.63,IN,1628642359
Durango,24.8333,-104.8333,75.65,38,100,9.31,MX,1628642576
La Rioja,42.25,-2.5,69.04,90,0,1.95,ES,1628642576
Otane,-39.8833,176.6333,61.39,68,29,3.83,NZ,1628642577
Laas,46.6166,10.7002,64.02,83,0,3.89,IT,1628642577
Saint-Louis,16.3333,-15.0,85.64,52,0,14.81,SN,1628642577
Dicabisagan,17.0818,122.4157,85.91,65,50,3.62,PH,1628642578
Seoul,37.5683,126.9778,80.2,76,75,3.44,KR,1628641884
